{
"type": "FeatureCollection",
"name": "sql_statement",
"crs": { "type": "name", "properties": { "name": "urn:ogc:def:crs:OGC:1.3:CRS84" } },
"features": [
{ "type": "Feature", "properties": { "id_station": 1, "name": "Alpage Crouzet - Cr-1", "description": null, "elevation": null }, "geometry": { "type": "Point", "coordinates": [ 6.501229744483909, 44.780025577648836 ] } },
{ "type": "Feature", "properties": { "id_station": 2, "name": "Alpage Crouzet - Cr-2", "description": null, "elevation": null }, "geometry": { "type": "Point", "coordinates": [ 6.503802943650559, 44.781621365121502 ] } },
{ "type": "Feature", "properties": { "id_station": 3, "name": "Alpage Crouzet - Cr-3", "description": null, "elevation": null }, "geometry": { "type": "Point", "coordinates": [ 6.504731113095344, 44.783234898901931 ] } },
{ "type": "Feature", "properties": { "id_station": 4, "name": "Alpage Crouzet - Cr-4", "description": null, "elevation": null }, "geometry": { "type": "Point", "coordinates": [ 6.487769532707363, 44.773872322929137 ] } },
{ "type": "Feature", "properties": { "id_station": 5, "name": "alpage Crouzet - Cr-5", "description": null, "elevation": null }, "geometry": { "type": "Point", "coordinates": [ 6.485839475787477, 44.777901007473623 ] } },
{ "type": "Feature", "properties": { "id_station": 6, "name": "Alpage Distroit - Di-1", "description": null, "elevation": null }, "geometry": { "type": "Point", "coordinates": [ 6.466586478116835, 44.651175659739081 ] } },
{ "type": "Feature", "properties": { "id_station": 7, "name": "Alpage Distroit - Di-2", "description": null, "elevation": null }, "geometry": { "type": "Point", "coordinates": [ 6.456893959784611, 44.656466055877154 ] } },
{ "type": "Feature", "properties": { "id_station": 8, "name": "Alpage Distroit - Di-3", "description": null, "elevation": null }, "geometry": { "type": "Point", "coordinates": [ 6.451782401043002, 44.656122030054497 ] } },
{ "type": "Feature", "properties": { "id_station": 9, "name": "Alpage Distroit - Di-4", "description": null, "elevation": null }, "geometry": { "type": "Point", "coordinates": [ 6.440328932459261, 44.663542077966277 ] } },
{ "type": "Feature", "properties": { "id_station": 10, "name": "Alpage Distroit - Di-5", "description": null, "elevation": null }, "geometry": { "type": "Point", "coordinates": [ 6.448459519591194, 44.669670644128487 ] } },
{ "type": "Feature", "properties": { "id_station": 11, "name": "Alpage Grande Cabane - GC-1", "description": null, "elevation": null }, "geometry": { "type": "Point", "coordinates": [ 6.440800785853149, 44.784811423623765 ] } },
{ "type": "Feature", "properties": { "id_station": 12, "name": "Alpage Grande Cabane - GC-2", "description": null, "elevation": null }, "geometry": { "type": "Point", "coordinates": [ 6.436441352741824, 44.783587748161622 ] } },
{ "type": "Feature", "properties": { "id_station": 13, "name": "Alpage Grande Cabane - GC-3", "description": null, "elevation": null }, "geometry": { "type": "Point", "coordinates": [ 6.426451988269125, 44.783515010928681 ] } },
{ "type": "Feature", "properties": { "id_station": 14, "name": "Alpage Grande Cabane - GC-4", "description": null, "elevation": null }, "geometry": { "type": "Point", "coordinates": [ 6.393299695918687, 44.781308217755388 ] } },
{ "type": "Feature", "properties": { "id_station": 15, "name": "Alpage Grande Cabane - GC-5", "description": null, "elevation": null }, "geometry": { "type": "Point", "coordinates": [ 6.381963835972869, 44.770306767085252 ] } },
{ "type": "Feature", "properties": { "id_station": 16, "name": "Alpage Lanchatra - La-1", "description": null, "elevation": null }, "geometry": { "type": "Point", "coordinates": [ 6.137193984911835, 44.952486356520055 ] } },
{ "type": "Feature", "properties": { "id_station": 17, "name": "Alpage Lanchatra - La-3", "description": null, "elevation": null }, "geometry": { "type": "Point", "coordinates": [ 6.138647147332613, 44.944469030936993 ] } },
{ "type": "Feature", "properties": { "id_station": 18, "name": "Alpage Lanchatra - La-4", "description": null, "elevation": null }, "geometry": { "type": "Point", "coordinates": [ 6.13713821129371, 44.957474474626004 ] } },
{ "type": "Feature", "properties": { "id_station": 19, "name": "Alpage Ponsonniere - Po-1", "description": null, "elevation": null }, "geometry": { "type": "Point", "coordinates": [ 6.475654543845167, 45.024447105872049 ] } },
{ "type": "Feature", "properties": { "id_station": 20, "name": "Alpage Ponsonniere - Po-2", "description": null, "elevation": null }, "geometry": { "type": "Point", "coordinates": [ 6.486360596824772, 45.032003605937902 ] } },
{ "type": "Feature", "properties": { "id_station": 21, "name": "Alpage Ponsonniere - Po-3", "description": null, "elevation": null }, "geometry": { "type": "Point", "coordinates": [ 6.471441773023909, 45.05243279970373 ] } },
{ "type": "Feature", "properties": { "id_station": 22, "name": "Alpage Ponsonniere - Po-4", "description": null, "elevation": null }, "geometry": { "type": "Point", "coordinates": [ 6.467977973784151, 45.050438125605559 ] } },
{ "type": "Feature", "properties": { "id_station": 23, "name": "Alpage Ponsonniere - Po-6", "description": null, "elevation": null }, "geometry": { "type": "Point", "coordinates": [ 6.483778411631756, 45.029745703339053 ] } },
{ "type": "Feature", "properties": { "id_station": 24, "name": "Alpage Rouanette - Ro-1", "description": null, "elevation": null }, "geometry": { "type": "Point", "coordinates": [ 6.304574001232445, 44.638443833543349 ] } },
{ "type": "Feature", "properties": { "id_station": 25, "name": "Alpage Rouanette - Ro-2", "description": null, "elevation": null }, "geometry": { "type": "Point", "coordinates": [ 6.305077978451018, 44.650714685575551 ] } },
{ "type": "Feature", "properties": { "id_station": 26, "name": "Alpage Rouanette - Ro-3", "description": null, "elevation": null }, "geometry": { "type": "Point", "coordinates": [ 6.314577967886543, 44.634045366536952 ] } },
{ "type": "Feature", "properties": { "id_station": 27, "name": "Alpage Rouanette - Ro-4", "description": null, "elevation": null }, "geometry": { "type": "Point", "coordinates": [ 6.316198726471971, 44.63759107527131 ] } },
{ "type": "Feature", "properties": { "id_station": 28, "name": "Alpage Surette - Su-1", "description": null, "elevation": null }, "geometry": { "type": "Point", "coordinates": [ 6.293984393439995, 44.820860190705631 ] } },
{ "type": "Feature", "properties": { "id_station": 29, "name": "Alpage Surette - Su-2", "description": null, "elevation": null }, "geometry": { "type": "Point", "coordinates": [ 6.297076300501233, 44.822047873033924 ] } },
{ "type": "Feature", "properties": { "id_station": 30, "name": "Alpage Surette - Su-3", "description": null, "elevation": null }, "geometry": { "type": "Point", "coordinates": [ 6.295170640991406, 44.807867013510055 ] } },
{ "type": "Feature", "properties": { "id_station": 31, "name": "Alpage Surette - Su-4", "description": null, "elevation": null }, "geometry": { "type": "Point", "coordinates": [ 6.286864636145144, 44.795495489905534 ] } },
{ "type": "Feature", "properties": { "id_station": 32, "name": "Alpage Surette - Su-5", "description": null, "elevation": null }, "geometry": { "type": "Point", "coordinates": [ 6.292992694661633, 44.79729420682596 ] } },
{ "type": "Feature", "properties": { "id_station": 33, "name": "station Chaillol Alpages Sentinelles Cent1", "description": null, "elevation": null }, "geometry": { "type": "Point", "coordinates": [ 6.376638868968796, 45.036749951944159 ] } },
{ "type": "Feature", "properties": { "id_station": 34, "name": "station Chaillol Alpages Sentinelles Crete", "description": null, "elevation": null }, "geometry": { "type": "Point", "coordinates": [ 6.359083307967785, 45.051638809941863 ] } },
{ "type": "Feature", "properties": { "id_station": 35, "name": "station Chaillol Alpages Sentinelles Gplats", "description": null, "elevation": null }, "geometry": { "type": "Point", "coordinates": [ 6.362555510967987, 45.048194433942307 ] } },
{ "type": "Feature", "properties": { "id_station": 36, "name": "station Chaillol Alpages Sentinelles Pplats", "description": null, "elevation": null }, "geometry": { "type": "Point", "coordinates": [ 6.372305508968549, 45.040888851943585 ] } },
{ "type": "Feature", "properties": { "id_station": 39, "name": "LORA EMS-Door_B1C7_Chr", "description": "capteur de température et d'humidité pouvant se placer sur une porte pour en détecter les mouvements d'ouverture\/fermeture", "elevation": null }, "geometry": { "type": "Point", "coordinates": [ 6.053199844100527, 44.576411007378098 ] } },
{ "type": "Feature", "properties": { "id_station": 40, "name": "LORA ELT-Lite_95A1_BteGcn", "description": "capteur renvoyant les informations sur son niveau de beatterie, connectable à une sonde externe", "elevation": null }, "geometry": { "type": "Point", "coordinates": [ 6.032029860101177, 44.421146442094411 ] } },
{ "type": "Feature", "properties": { "id_station": 41, "name": "LORA ELT-2_E1FB_VctPti", "description": "capteur de température, d'humidité et de pression, connectable à une sonde externe", "elevation": null }, "geometry": { "type": "Point", "coordinates": [ 6.071496715467257, 44.570369318779584 ] } },
{ "type": "Feature", "properties": { "id_station": 42, "name": "LORA ELT-2_E1F8_CmeMct", "description": "capteur de température, d'humidité et de pression, connectable à une sonde externe", "elevation": null }, "geometry": { "type": "Point", "coordinates": [ 6.08980398340001, 44.560818387256703 ] } },
{ "type": "Feature", "properties": { "id_station": 43, "name": "LORA LAIRDTH_PNE", "description": "capteur de température et d'humidité", "elevation": null }, "geometry": { "type": "Point", "coordinates": [ 5.946021042170164, 44.893900343451158 ] } },
{ "type": "Feature", "properties": { "id_station": 44, "name": "NDVI-ESE-DEC_Vallonpierre_SUR-006", "description": null, "elevation": null }, "geometry": { "type": "Point", "coordinates": [ 6.288462187615628, 44.797846139862237 ] } },
{ "type": "Feature", "properties": { "id_station": 45, "name": "NDVI_ESE_Crouzet", "description": null, "elevation": null }, "geometry": { "type": "Point", "coordinates": [ 6.5011395281283, 44.779852073330247 ] } },
{ "type": "Feature", "properties": { "id_station": 47, "name": "NDVI_DEC_Crouzet-bas", "description": null, "elevation": null }, "geometry": { "type": "Point", "coordinates": [ 6.499738789883542, 44.779548858095346 ] } },
{ "type": "Feature", "properties": { "id_station": 48, "name": "Capteur image SUR-006_Vallonpierre", "description": null, "elevation": null }, "geometry": { "type": "Point", "coordinates": [ 6.28846362429957, 44.797846040990407 ] } },
{ "type": "Feature", "properties": { "id_station": 49, "name": "Capteur image CROU-004_Haut", "description": null, "elevation": null }, "geometry": { "type": "Point", "coordinates": [ 6.488130226107272, 44.774055993900589 ] } },
{ "type": "Feature", "properties": { "id_station": 50, "name": "Capteur images CROU_Bas", "description": null, "elevation": null }, "geometry": { "type": "Point", "coordinates": [ 6.500823696950272, 44.779956391459251 ] } },
{ "type": "Feature", "properties": { "id_station": 38, "name": "station meteo Lauvitel", "description": "Station composée d'un anémomètre, d'une girouette, d'un radiomètre, d'un thermomètre, d'un hygromètre et d'un pluviomètre. Tout autant de capteurs qui fournissent chaque heure plus d’une quinzaine de données. On peut ainsi suivre la témpérature, l'humidité relative, la vitesse du vent ou encore la hauteur de neige à proximité du lac Lauvitel. Toutes ces données sont télétransmises au siège du secteur de l’Oisans.", "elevation": null }, "geometry": { "type": "Point", "coordinates": [ 6.065537938830514, 44.97466739431966 ] } },
{ "type": "Feature", "properties": { "id_station": 37, "name": "station hydrologique Lauvitel", "description": "Un capteur de pression ainsi que plusieurs capteurs de températures (thermistores) ont été immergés dans le lac. Ces derniers permettent de mesurer les variations de niveau (\"marnage\") et de température du lac chaque heure. Toutes ces données sont télétransmises au siège du secteur de l’Oisans du Parc national.", "elevation": null }, "geometry": { "type": "Point", "coordinates": [ 6.060626326563666, 44.970504719067293 ] } }
]
}
